{
"type": "FeatureCollection",
"crs": { "type": "name", "properties": { "name": "urn:ogc:def:crs:OGC:1.3:CRS84" } },
                                                                                
"features": [
{ "type": "Feature", "properties": { "OPERATIONA": "NI", "SITE_NAME": "Dumfries Brooms Road Car Park", "POSTCODE": "DG1 2JX", "EASTING": 297464.000000, "NORTHING": 575931.000000, "OVERALL_RE": "PFI", "CENTRE_OR_": null, "MI_PRINX": 19 }, "geometry": { "type": "Point", "coordinates": [ -3.607159344763807, 55.067223451789317, 52.532388250343502 ] } },
{ "type": "Feature", "properties": { "OPERATIONA": "NI", "SITE_NAME": "Ae Village", "POSTCODE": "DG1 1HR", "EASTING": 298367.000000, "NORTHING": 589340.000000, "OVERALL_RE": "PFI", "CENTRE_OR_": null, "MI_PRINX": 15 }, "geometry": { "type": "Point", "coordinates": [ -3.597829358486644, 55.187855294140718, 52.54820466414094 ] } },
{ "type": "Feature", "properties": { "OPERATIONA": "WI", "SITE_NAME": "Stranraer Morrisons", "POSTCODE": "DG9 8ES", "EASTING": 206431.000000, "NORTHING": 560811.000000, "OVERALL_RE": "PFI", "CENTRE_OR_": null, "MI_PRINX": 57 }, "geometry": { "type": "Point", "coordinates": [ -5.020743319232846, 54.904404706060532, 53.787315939553082 ] } },
{ "type": "Feature", "properties": { "OPERATIONA": "NI", "SITE_NAME": "Sanquhar St. Marys Street Recycling Centre", "POSTCODE": "DG4 6ES", "EASTING": 278208.000000, "NORTHING": 610490.000000, "OVERALL_RE": "PFI", "CENTRE_OR_": "C", "MI_PRINX": 38 }, "geometry": { "type": "Point", "coordinates": [ -3.923437495135208, 55.373238870506491, 52.888531839475036 ] } },
{ "type": "Feature", "properties": { "OPERATIONA": "AE", "SITE_NAME": "Eastriggs Labour Club Car Park", "POSTCODE": "DG12 6NZ", "EASTING": 325028.000000, "NORTHING": 566112.000000, "OVERALL_RE": "PFI", "CENTRE_OR_": null, "MI_PRINX": 7 }, "geometry": { "type": "Point", "coordinates": [ -3.173071256668067, 54.983939301017337, 52.084965388290584 ] } },
{ "type": "Feature", "properties": { "OPERATIONA": "AE", "SITE_NAME": "Gretna Community Centre", "POSTCODE": "DG16 5AQ", "EASTING": 331885.000000, "NORTHING": 567166.000000, "OVERALL_RE": "PFI", "CENTRE_OR_": null, "MI_PRINX": 8 }, "geometry": { "type": "Point", "coordinates": [ -3.066194059003842, 54.994395275627419, 51.979843027889729 ] } },
{ "type": "Feature", "properties": { "OPERATIONA": "ST", "SITE_NAME": "New Galloway Main Street Car Park", "POSTCODE": "DG7 3RF", "EASTING": 263533.000000, "NORTHING": 577558.000000, "OVERALL_RE": "PFI", "CENTRE_OR_": null, "MI_PRINX": 49 }, "geometry": { "type": "Point", "coordinates": [ -4.138906886035786, 55.073664325352766, 53.03700558654964 ] } },
{ "type": "Feature", "properties": { "OPERATIONA": "WI", "SITE_NAME": "Portpatrick Village Hall", "POSTCODE": "DG9 8TZ", "EASTING": 199843.000000, "NORTHING": 554299.000000, "OVERALL_RE": "PFI", "CENTRE_OR_": null, "MI_PRINX": 55 }, "geometry": { "type": "Point", "coordinates": [ -5.118814001807457, 54.843376484855824, 53.857125310227275 ] } },
{ "type": "Feature", "properties": { "OPERATIONA": "ST", "SITE_NAME": "Castle Douglas Market Hill Car Park", "POSTCODE": "DG7 1BE", "EASTING": 276724.000000, "NORTHING": 562551.000000, "OVERALL_RE": "PFI", "CENTRE_OR_": null, "MI_PRINX": 42 }, "geometry": { "type": "Point", "coordinates": [ -3.925972699952349, 54.942338516812626, 52.808542180806398 ] } },
{ "type": "Feature", "properties": { "OPERATIONA": "NI", "SITE_NAME": "Moniaive Village Carpark", "POSTCODE": "DG3 4HJ", "EASTING": 278002.000000, "NORTHING": 591000.000000, "OVERALL_RE": "PFI", "CENTRE_OR_": null, "MI_PRINX": 34 }, "geometry": { "type": "Point", "coordinates": [ -3.9182231709743, 55.198154476574373, 52.855331335216761 ] } },
{ "type": "Feature", "properties": { "OPERATIONA": "NI", "SITE_NAME": "Bankend Community Centre", "POSTCODE": "DG1 4RP", "EASTING": 302644.000000, "NORTHING": 568524.000000, "OVERALL_RE": "PFI", "CENTRE_OR_": null, "MI_PRINX": 16 }, "geometry": { "type": "Point", "coordinates": [ -3.523550449967031, 55.001730461612354, 52.436203537508845 ] } },
{ "type": "Feature", "properties": { "OPERATIONA": "NI", "SITE_NAME": "Dumfries Jocks Loaning Recycling Centre", "POSTCODE": "DG2 0DL", "EASTING": 296223.000000, "NORTHING": 578130.000000, "OVERALL_RE": "PFI", "CENTRE_OR_": "C", "MI_PRINX": 23 }, "geometry": { "type": "Point", "coordinates": [ -3.627385482340627, 55.086717781027851, 52.556170292198658 ] } },
{ "type": "Feature", "properties": { "OPERATIONA": "NI", "SITE_NAME": "Kirkconnel Public Toilets", "POSTCODE": "DG4 6NE", "EASTING": 273028.000000, "NORTHING": 612257.000000, "OVERALL_RE": "PFI", "CENTRE_OR_": null, "MI_PRINX": 33 }, "geometry": { "type": "Point", "coordinates": [ -4.005926678888278, 55.387793730633142, 52.967419468797743 ] } },
{ "type": "Feature", "properties": { "OPERATIONA": "NI", "SITE_NAME": "Sanquhar Simpson Road Car Park", "POSTCODE": "DG4 6BP", "EASTING": 278201.000000, "NORTHING": 609977.000000, "OVERALL_RE": "PFI", "CENTRE_OR_": null, "MI_PRINX": 37 }, "geometry": { "type": "Point", "coordinates": [ -3.923324310023449, 55.368630089561293, 52.887771827168763 ] } },
{ "type": "Feature", "properties": { "OPERATIONA": "AE", "SITE_NAME": "Lockerbie Muirhead Recycling Centre", "POSTCODE": "DG11 1LL", "EASTING": 312525.000000, "NORTHING": 581736.000000, "OVERALL_RE": "PFI", "CENTRE_OR_": "C", "MI_PRINX": 12 }, "geometry": { "type": "Point", "coordinates": [ -3.373186162834072, 55.122256499525953, 52.315903633832932 ] } },
{ "type": "Feature", "properties": { "OPERATIONA": "AE", "SITE_NAME": "Lockerbie McJerrow Park Car Park", "POSTCODE": "DG11 2BJ", "EASTING": 313535.000000, "NORTHING": 581635.000000, "OVERALL_RE": "PFI", "CENTRE_OR_": null, "MI_PRINX": 11 }, "geometry": { "type": "Point", "coordinates": [ -3.357323058663246, 55.121526595760564, 52.300118292681873 ] } },
{ "type": "Feature", "properties": { "OPERATIONA": "AE", "SITE_NAME": "Annan Tesco Car Park", "POSTCODE": "DG12 6SN", "EASTING": 320128.000000, "NORTHING": 566392.000000, "OVERALL_RE": "PFI", "CENTRE_OR_": null, "MI_PRINX": 5 }, "geometry": { "type": "Point", "coordinates": [ -3.249698852092342, 54.985692304420887, 52.162094254978001 ] } },
{ "type": "Feature", "properties": { "OPERATIONA": "AE", "SITE_NAME": "Annan Newington Leisure Centre", "POSTCODE": "DG12 6JY", "EASTING": 320126.000000, "NORTHING": 566638.000000, "OVERALL_RE": "PFI", "CENTRE_OR_": null, "MI_PRINX": 3 }, "geometry": { "type": "Point", "coordinates": [ -3.249798710608054, 54.987902052642859, 52.162739682942629 ] } },
{ "type": "Feature", "properties": { "OPERATIONA": "AE", "SITE_NAME": "Moffat Town Hall", "POSTCODE": "DG10 9HF", "EASTING": 308417.000000, "NORTHING": 605302.000000, "OVERALL_RE": "PFI", "CENTRE_OR_": null, "MI_PRINX": 14 }, "geometry": { "type": "Point", "coordinates": [ -3.445235855266109, 55.333206345140887, 52.425996795296669 ] } },
{ "type": "Feature", "properties": { "OPERATIONA": "WI", "SITE_NAME": "Whithorn Park Lane", "POSTCODE": "DG8 8PH", "EASTING": 244695.000000, "NORTHING": 540580.000000, "OVERALL_RE": "PFI", "CENTRE_OR_": null, "MI_PRINX": 59 }, "geometry": { "type": "Point", "coordinates": [ -4.413718313396325, 54.736129256650017, 53.207854479551315 ] } },
{ "type": "Feature", "properties": { "OPERATIONA": "ST", "SITE_NAME": "Gatehouse of Fleet High Street Car Park", "POSTCODE": "DG7 2HP", "EASTING": 259939.000000, "NORTHING": 556219.000000, "OVERALL_RE": "PFI", "CENTRE_OR_": null, "MI_PRINX": 47 }, "geometry": { "type": "Point", "coordinates": [ -4.184717460657826, 54.881046858055548, 53.035626195371151 ] } },
{ "type": "Feature", "properties": { "OPERATIONA": "ST", "SITE_NAME": "Kirkcudbright Harbour side", "POSTCODE": "DG6 4HY", "EASTING": 268363.000000, "NORTHING": 551138.000000, "OVERALL_RE": "PFI", "CENTRE_OR_": null, "MI_PRINX": 48 }, "geometry": { "type": "Point", "coordinates": [ -4.051187642283257, 54.837706360575616, 52.900114411488175 ] } },
{ "type": "Feature", "properties": { "OPERATIONA": "ST", "SITE_NAME": "Castle Douglas Tesco Car Park (Ernespie Road)", "POSTCODE": "DG7 1LD", "EASTING": 276891.000000, "NORTHING": 562905.000000, "OVERALL_RE": "PFI", "CENTRE_OR_": null, "MI_PRINX": 44 }, "geometry": { "type": "Point", "coordinates": [ -3.923519248694925, 54.945559100890826, 52.806997671723366 ] } },
{ "type": "Feature", "properties": { "OPERATIONA": "NI", "SITE_NAME": "New Abbey, Abbey Car Park", "POSTCODE": "DG2 8BY", "EASTING": 296447.000000, "NORTHING": 566283.000000, "OVERALL_RE": "PFI", "CENTRE_OR_": null, "MI_PRINX": 35 }, "geometry": { "type": "Point", "coordinates": [ -3.619578470649368, 54.980348930794605, 52.524469152092934 ] } },
{ "type": "Feature", "properties": { "OPERATIONA": "NI", "SITE_NAME": "Dumfries Kingholm Quay Community Centre", "POSTCODE": null, "EASTING": 297684.000000, "NORTHING": 573583.000000, "OVERALL_RE": "PFI", "CENTRE_OR_": null, "MI_PRINX": 24 }, "geometry": { "type": "Point", "coordinates": [ -3.602872656664189, 55.046177862782692, 52.523563626222312 ] } },
{ "type": "Feature", "properties": { "OPERATIONA": "NI", "SITE_NAME": "Dumfries Mill Road Car Park", "POSTCODE": "DG2 7BE", "EASTING": 296805.000000, "NORTHING": 576060.000000, "OVERALL_RE": "PFI", "CENTRE_OR_": null, "MI_PRINX": 26 }, "geometry": { "type": "Point", "coordinates": [ -3.617520930919639, 55.068245597037155, 52.542633235454559 ] } },
{ "type": "Feature", "properties": { "OPERATIONA": "NI", "SITE_NAME": "Dumfries Tesco Cuckoo Bridge Car Park", "POSTCODE": "DG2 9BF", "EASTING": 296468.000000, "NORTHING": 576805.000000, "OVERALL_RE": "PFI", "CENTRE_OR_": null, "MI_PRINX": 29 }, "geometry": { "type": "Point", "coordinates": [ -3.623066784739343, 55.074867279622104, 52.549438507296145 ] } },
{ "type": "Feature", "properties": { "OPERATIONA": "NI", "SITE_NAME": "Dumfries Nithsdale Mills", "POSTCODE": "DG12QP", "EASTING": 297574.000000, "NORTHING": 575519.000000, "OVERALL_RE": "PFI", "CENTRE_OR_": null, "MI_PRINX": 28 }, "geometry": { "type": "Point", "coordinates": [ -3.605289453411636, 55.063545351399881, 52.52976924367249 ] } },
{ "type": "Feature", "properties": { "OPERATIONA": "NI", "SITE_NAME": "Dumfries Morrisons Store Car Park", "POSTCODE": "DG1 2DR", "EASTING": 297729.000000, "NORTHING": 576046.000000, "OVERALL_RE": "PFI", "CENTRE_OR_": null, "MI_PRINX": 27 }, "geometry": { "type": "Point", "coordinates": [ -3.603052855599497, 55.068311108219604, 52.528653360903263 ] } },
{ "type": "Feature", "properties": { "OPERATIONA": "NI", "SITE_NAME": "Dumfries Tesco Peel Centre car park", "POSTCODE": "DG1 3PF", "EASTING": 298986.000000, "NORTHING": 576766.000000, "OVERALL_RE": "PFI", "CENTRE_OR_": null, "MI_PRINX": 30 }, "geometry": { "type": "Point", "coordinates": [ -3.583632738954109, 55.075036136527643, 52.511317471042275 ] } },
{ "type": "Feature", "properties": { "OPERATIONA": "NI", "SITE_NAME": "Dumfries Gates Rubber Company Ltd Heathhall", "POSTCODE": "DG1 1UB", "EASTING": 298820.000000, "NORTHING": 579093.000000, "OVERALL_RE": "PFI", "CENTRE_OR_": null, "MI_PRINX": 22 }, "geometry": { "type": "Point", "coordinates": [ -3.587059320418234, 55.095904708858207, 52.519144528545439 ] } },
{ "type": "Feature", "properties": { "OPERATIONA": "AE", "SITE_NAME": "Langholm Co-op Car Park", "POSTCODE": "DG13 OJZ", "EASTING": 336712.000000, "NORTHING": 584035.000000, "OVERALL_RE": "PFI", "CENTRE_OR_": null, "MI_PRINX": 9 }, "geometry": { "type": "Point", "coordinates": [ -2.994512431952213, 55.146596061958775, 51.942720860242844 ] } },
{ "type": "Feature", "properties": { "OPERATIONA": "NI", "SITE_NAME": "Dumfries Dock Park", "POSTCODE": "DG1 4AX", "EASTING": 297387.000000, "NORTHING": 575640.000000, "OVERALL_RE": "PFI", "CENTRE_OR_": null, "MI_PRINX": 21 }, "geometry": { "type": "Point", "coordinates": [ -3.608259720242415, 55.064593651970789, 52.532874419353902 ] } },
{ "type": "Feature", "properties": { "OPERATIONA": "AE", "SITE_NAME": "Lochmaben Castle Street Car Park", "POSTCODE": "DG11 1NY", "EASTING": 308081.000000, "NORTHING": 582702.000000, "OVERALL_RE": "PFI", "CENTRE_OR_": null, "MI_PRINX": 10 }, "geometry": { "type": "Point", "coordinates": [ -3.443159004081894, 55.130129082048441, 52.386263823136687 ] } },
{ "type": "Feature", "properties": { "OPERATIONA": "AE", "SITE_NAME": "Beattock Old Station Yard Recycling Centre", "POSTCODE": "DG10 9RN", "EASTING": 307779.000000, "NORTHING": 602506.000000, "OVERALL_RE": "PFI", "CENTRE_OR_": "C", "MI_PRINX": 6 }, "geometry": { "type": "Point", "coordinates": [ -3.454369469985924, 55.307971140597587, 52.430727122351527 ] } },
{ "type": "Feature", "properties": { "OPERATIONA": "AE", "SITE_NAME": "Annan Somerfield Car Park", "POSTCODE": "DG12 5AN", "EASTING": 319568.000000, "NORTHING": 566689.000000, "OVERALL_RE": "PFI", "CENTRE_OR_": null, "MI_PRINX": 4 }, "geometry": { "type": "Point", "coordinates": [ -3.25853112033626, 54.988270288237914, 52.171540116891265 ] } },
{ "type": "Feature", "properties": { "OPERATIONA": "AE", "SITE_NAME": "Annan Corsehill Recycling Centre", "POSTCODE": "DG12 5LN", "EASTING": 320629.000000, "NORTHING": 569872.000000, "OVERALL_RE": "PFI", "CENTRE_OR_": "C", "MI_PRINX": 2 }, "geometry": { "type": "Point", "coordinates": [ -3.242838114510345, 55.01703688198269, 52.162888665683568 ] } },
{ "type": "Feature", "properties": { "OPERATIONA": "WI", "SITE_NAME": "Newton Stewart Riverside Car Park", "POSTCODE": "DG8 6NQ", "EASTING": 241201.000000, "NORTHING": 565275.000000, "OVERALL_RE": "PFI", "CENTRE_OR_": null, "MI_PRINX": 50 }, "geometry": { "type": "Point", "coordinates": [ -4.481509556548701, 54.956748905071834, 53.324650117196143 ] } },
{ "type": "Feature", "properties": { "OPERATIONA": "ST", "SITE_NAME": "Castle Douglas Recycling Centre", "POSTCODE": "DG7 1LH", "EASTING": 275729.000000, "NORTHING": 563480.000000, "OVERALL_RE": "PFI", "CENTRE_OR_": "C", "MI_PRINX": 43 }, "geometry": { "type": "Point", "coordinates": [ -3.941898002160599, 54.950434958833668, 52.825524965301156 ] } },
{ "type": "Feature", "properties": { "OPERATIONA": "ST", "SITE_NAME": "Dalbeattie Aucheninnes Recycling Centre", "POSTCODE": "DG5 4NW", "EASTING": 284837.000000, "NORTHING": 560890.000000, "OVERALL_RE": "PFI", "CENTRE_OR_": "C", "MI_PRINX": 45 }, "geometry": { "type": "Point", "coordinates": [ -3.798727691540144, 54.929359778469781, 52.684438449330628 ] } },
{ "type": "Feature", "properties": { "OPERATIONA": "NI", "SITE_NAME": "Gatelawbridge Recycling Centre", "POSTCODE": "DG3 5EA", "EASTING": 290211.000000, "NORTHING": 596503.000000, "OVERALL_RE": "PFI", "CENTRE_OR_": "C", "MI_PRINX": 32 }, "geometry": { "type": "Point", "coordinates": [ -3.728655812601609, 55.250446228926776, 52.685191945172846 ] } },
{ "type": "Feature", "properties": { "OPERATIONA": "NI", "SITE_NAME": "Wanlockhead Community Centre", "POSTCODE": "ML12 6UT", "EASTING": 287408.000000, "NORTHING": 612958.000000, "OVERALL_RE": "PFI", "CENTRE_OR_": null, "MI_PRINX": 40 }, "geometry": { "type": "Point", "coordinates": [ -3.779337479644098, 55.397602053931493, 52.756403402425349 ] } },
{ "type": "Feature", "properties": { "OPERATIONA": "AE", "SITE_NAME": "Lockerbie Somerfield Store Car Park", "POSTCODE": "DG11 2BX", "EASTING": 313693.000000, "NORTHING": 581551.000000, "OVERALL_RE": "PFI", "CENTRE_OR_": null, "MI_PRINX": 13 }, "geometry": { "type": "Point", "coordinates": [ -3.354820815587078, 55.120799591543417, 52.297495865263045 ] } },
{ "type": "Feature", "properties": { "OPERATIONA": "ST", "SITE_NAME": "Castle Douglas Co-op Store Car Park", "POSTCODE": "DG7 1AY", "EASTING": 276266.000000, "NORTHING": 562437.000000, "OVERALL_RE": "PFI", "CENTRE_OR_": null, "MI_PRINX": 41 }, "geometry": { "type": "Point", "coordinates": [ -3.933068875689738, 54.941201239965622, 52.814973778091371 ] } },
{ "type": "Feature", "properties": { "OPERATIONA": "ST", "SITE_NAME": "Dalbeattie Water Street Car Park", "POSTCODE": "DG5 4JX", "EASTING": 283352.000000, "NORTHING": 561395.000000, "OVERALL_RE": "PFI", "CENTRE_OR_": null, "MI_PRINX": 46 }, "geometry": { "type": "Point", "coordinates": [ -3.822094302749959, 54.933550514982386, 52.707777243107557 ] } },
{ "type": "Feature", "properties": { "OPERATIONA": "NI", "SITE_NAME": "Dunscore Parish Church Car Park", "POSTCODE": "DG2 0SZ", "EASTING": 286607.000000, "NORTHING": 584332.000000, "OVERALL_RE": "PFI", "CENTRE_OR_": null, "MI_PRINX": 31 }, "geometry": { "type": "Point", "coordinates": [ -3.780435907772154, 55.140316253989383, 52.713985165581107 ] } },
{ "type": "Feature", "properties": { "OPERATIONA": "NI", "SITE_NAME": "Penpont Village Car Park", "POSTCODE": "DG3 4BP", "EASTING": 284749.000000, "NORTHING": 594662.000000, "OVERALL_RE": "PFI", "CENTRE_OR_": null, "MI_PRINX": 36 }, "geometry": { "type": "Point", "coordinates": [ -3.813779405345487, 55.232664761237487, 52.762971618212759 ] } },
{ "type": "Feature", "properties": { "OPERATIONA": "NI", "SITE_NAME": "Thornhill Public Library", "POSTCODE": "DG3 5NW", "EASTING": 287738.000000, "NORTHING": 595272.000000, "OVERALL_RE": "PFI", "CENTRE_OR_": null, "MI_PRINX": 39 }, "geometry": { "type": "Point", "coordinates": [ -3.767047923957651, 55.238832942781585, 52.719710933975875 ] } },
{ "type": "Feature", "properties": { "OPERATIONA": "AE", "SITE_NAME": "Annan and District Ex Service Club", "POSTCODE": "DG12 5HA", "EASTING": 319873.000000, "NORTHING": 566549.000000, "OVERALL_RE": "PFI", "CENTRE_OR_": null, "MI_PRINX": 1 }, "geometry": { "type": "Point", "coordinates": [ -3.253726591157741, 54.98706174745594, 52.166450750082731 ] } },
{ "type": "Feature", "properties": { "OPERATIONA": "WI", "SITE_NAME": "Whithorn Blacks Plantation Recycling Centre", "POSTCODE": "DG8 8DE", "EASTING": 242860.000000, "NORTHING": 540620.000000, "OVERALL_RE": "PFI", "CENTRE_OR_": "C", "MI_PRINX": 54 }, "geometry": { "type": "Point", "coordinates": [ -4.44221246716699, 54.735917928528529, 53.233724469318986 ] } },
{ "type": "Feature", "properties": { "OPERATIONA": "WI", "SITE_NAME": "Wigtown Lorry Park", "POSTCODE": "DG8 9EH", "EASTING": 243424.000000, "NORTHING": 555285.000000, "OVERALL_RE": "PFI", "CENTRE_OR_": null, "MI_PRINX": 56 }, "geometry": { "type": "Point", "coordinates": [ -4.441390068139601, 54.867760921862143, 53.267449492588639 ] } },
{ "type": "Feature", "properties": { "OPERATIONA": "WI", "SITE_NAME": "Leswalt Galdenoch Recycling Centre", "POSTCODE": "DG9 0RS", "EASTING": 199080.000000, "NORTHING": 564278.000000, "OVERALL_RE": "PFI", "CENTRE_OR_": "C", "MI_PRINX": 51 }, "geometry": { "type": "Point", "coordinates": [ -5.137635513430135, 54.932611069894648, 53.893357877619565 ] } },
{ "type": "Feature", "properties": { "OPERATIONA": "NI", "SITE_NAME": "Dumfries Crichton Royal", "POSTCODE": null, "EASTING": 298182.000000, "NORTHING": 574340.000000, "OVERALL_RE": "PFI", "CENTRE_OR_": null, "MI_PRINX": 20 }, "geometry": { "type": "Point", "coordinates": [ -3.595352376459664, 55.053079988147765, 52.517825176939368 ] } },
{ "type": "Feature", "properties": { "OPERATIONA": "NI", "SITE_NAME": "Dumfries and Galloway Royal Infirmary", "POSTCODE": "DG1 4AN", "EASTING": 297852.000000, "NORTHING": 574818.000000, "OVERALL_RE": "PFI", "CENTRE_OR_": null, "MI_PRINX": 18 }, "geometry": { "type": "Point", "coordinates": [ -3.60068703998278, 55.057305890836233, 52.523932974785566 ] } },
{ "type": "Feature", "properties": { "OPERATIONA": "NI", "SITE_NAME": "Dumfries Locharmoss Recycling Centre", "POSTCODE": "DG1 3PG", "EASTING": 300774.000000, "NORTHING": 577334.000000, "OVERALL_RE": "PFI", "CENTRE_OR_": "C", "MI_PRINX": 25 }, "geometry": { "type": "Point", "coordinates": [ -3.55583851904865, 55.080499204611364, 52.485542516224086 ] } },
{ "type": "Feature", "properties": { "OPERATIONA": "NI", "SITE_NAME": "Bankend Wildfowl and Wetlands Trust", "POSTCODE": "DG1 4RS", "EASTING": 305118.000000, "NORTHING": 565645.000000, "OVERALL_RE": "PFI", "CENTRE_OR_": null, "MI_PRINX": 17 }, "geometry": { "type": "Point", "coordinates": [ -3.483933031714899, 54.976346062947911, 52.391375330276787 ] } },
{ "type": "Feature", "properties": { "OPERATIONA": "WI", "SITE_NAME": "New Luce Village Hall", "POSTCODE": "DG8 0AJ", "EASTING": 217511.000000, "NORTHING": 564566.000000, "OVERALL_RE": "PFI", "CENTRE_OR_": null, "MI_PRINX": 52 }, "geometry": { "type": "Point", "coordinates": [ -4.850550554936365, 54.942277432843731, 53.648478221148252 ] } },
{ "type": "Feature", "properties": { "OPERATIONA": "WI", "SITE_NAME": "Port William Harbour", "POSTCODE": "DG8 9SF", "EASTING": 233803.000000, "NORTHING": 543661.000000, "OVERALL_RE": "PFI", "CENTRE_OR_": null, "MI_PRINX": 58 }, "geometry": { "type": "Point", "coordinates": [ -4.584469939148246, 54.760304696109372, 53.368802472949028 ] } },
{ "type": "Feature", "properties": { "OPERATIONA": "WI", "SITE_NAME": "Creetown Adamson Square", "POSTCODE": "DG8 7HY", "EASTING": 247529.000000, "NORTHING": 558949.000000, "OVERALL_RE": "PFI", "CENTRE_OR_": null, "MI_PRINX": 53 }, "geometry": { "type": "Point", "coordinates": [ -4.379424618088727, 54.901926881113091, 53.219486750662327 ] } }
]
}
